project_name	publication_year	publication_doi	site_name	latitude	longitude	geo_loc_name	sample_name	sample_host	sample_age	sample_age_doi	singlegenome_domain	singlegenome_species	material	genome_type	collection_date	archive	data_type	archive_accession
Schuenemann2013	2013	10.1126/science.1238286	Sigtuna	59.618	17.726	Sweden	3077	Homo sapiens	900	10.1126/science.1238286	bacteria	Mycobacterium leprae	bone	chromosome	NA	SRA	raw	SRS418834
Schuenemann2013	2013	10.1126/science.1238286	Odense St. Jørgen cemetery	55.399	10.406	Denmark	Jorgen_625	Homo sapiens	600	10.1126/science.1238286	bacteria	Mycobacterium leprae	tooth	chromosome	NA	SRA	raw	SRS418854
Schuenemann2013	2013	10.1126/science.1238286	Refshale	56.193	9.394	Denmark	Refshale_16	Homo sapiens	900	10.1126/science.1238286	bacteria	Mycobacterium leprae	tooth	chromosome	NA	SRA	raw	SRS419262,SRS418858,SRS418859
Schuenemann2013	2013	10.1126/science.1238286	St. Mary Magdalene leprosarium, Winchester	51.059	-1.308	United Kingdom	SK2	Homo sapiens	700	10.1126/science.1238286	bacteria	Mycobacterium leprae	bone	chromosome	NA	SRA	raw	SRS418843
Schuenemann2013	2013	10.1126/science.1238286	St. Mary Magdalene leprosarium, Winchester	52.059	-1.308	United Kingdom	SK8	Homo sapiens	1000	10.1126/science.1238286	bacteria	Mycobacterium leprae	tooth	chromosome	NA	SRA	raw	SRS418845
Schuenemann2018	2018	10.1371/journal.ppat.1006997	Odense St. Jørgen cemetery	55.399	10.406	Denmark	Jorgen_404	Homo sapiens	700	10.1371/journal.ppat.1006997	bacteria	Mycobacterium leprae	tooth	chromosome	NA	ENA	raw	ERS1574247
Schuenemann2018	2018	10.1371/journal.ppat.1006997	Odense St. Jørgen cemetery	55.399	10.406	Denmark	Jorgen_427	Homo sapiens	700	10.1371/journal.ppat.1006997	bacteria	Mycobacterium leprae	tooth	chromosome	NA	ENA	raw	ERS1574249
Schuenemann2018	2018	10.1371/journal.ppat.1006997	Odense St. Jørgen cemetery	55.399	10.406	Denmark	Jorgen_507	Homo sapiens	800	10.1371/journal.ppat.1006997	bacteria	Mycobacterium leprae	tooth	chromosome	NA	ENA	raw	ERS1574253
Schuenemann2018	2018	10.1371/journal.ppat.1006997	Odense St. Jørgen cemetery	55.399	10.406	Denmark	Jorgen_533	Homo sapiens	800	10.1371/journal.ppat.1006997	bacteria	Mycobacterium leprae	tooth	chromosome	NA	ENA	raw	ERS1574254
Schuenemann2018	2018	10.1371/journal.ppat.1006997	Odense St. Jørgen cemetery	55.399	10.406	Denmark	Jorgen_722	Homo sapiens	700	10.1371/journal.ppat.1006997	bacteria	Mycobacterium leprae	tooth	chromosome	NA	ENA	raw	ERS1574259
Schuenemann2018	2018	10.1371/journal.ppat.1006997	Odense St. Jørgen cemetery	55.399	10.406	Denmark	Jorgen_749	Homo sapiens	700	10.1371/journal.ppat.1006997	bacteria	Mycobacterium leprae	tooth	chromosome	NA	ENA	raw	ERS1574262
Schuenemann2018	2018	10.1371/journal.ppat.1006997	Szentes-Kistőke	46.715	20.281	Hungary	SK11	Homo sapiens	1300	10.1016/j.meegid.2015.02.001	bacteria	Mycobacterium leprae	bone	chromosome	NA	SRA	raw	SRS2667046
Schuenemann2018	2018	10.1371/journal.ppat.1006997	Necropoli Vicenne Campochiaro	41.564	14.498	Italy	T18	Homo sapiens	1300	10.1016/j.meegid.2015.02.001	bacteria	Mycobacterium leprae	bone	chromosome	NA	SRA	raw	SRS2667044
Schuenemann2018	2018	10.1371/journal.ppat.1006997	Prušánky	48.831	16.982	Czech Republic	Body 188	Homo sapiens	1100	10.1016/j.meegid.2015.02.001	bacteria	Mycobacterium leprae	bone	chromosome	NA	SRA	raw	SRS2667047
Schuenemann2018	2018	10.1371/journal.ppat.1006997	Great Chesterford	52.063	0.193	United Kingdom	GC96	Homo sapiens	1500	10.1371/journal.pone.0124282	bacteria	Mycobacterium leprae	bone	chromosome	NA	SRA	raw	SRS2667045
Warinner2014	2014	10.1038/ng.2906	Dalheim	51.565	8.84	Germany	G12	Homo sapiens	900	10.1038/ng.2906	bacteria	Tannerella forsythia	tooth	chromosome	NA	SRA	raw	SRS473747,SRS473746,SRS473748,SRS473749,SRS473750
Bos2014	2014	10.1038/nature13591	El Yaral	-17.41	-71.092	Peru	64	Homo sapiens	900	10.1038/nature13591	bacteria	Mycobacterium pinnipedii	bone	chromosome	NA	SRA	raw	SRS592075
Bos2014	2014	10.1038/nature13591	El Algodonal	-17.583	-71.21	Peru	58	Homo sapiens	1000	10.1038/nature13591	bacteria	Mycobacterium pinnipedii	bone	chromosome	NA	SRA	raw	SRS591992
Bos2014	2014	10.1038/nature13591	Chiribaya Alta	-17.621	-71.269	Peru	54	Homo sapiens	900	10.1038/nature13591	bacteria	Mycobacterium pinnipedii	bone	chromosome	NA	SRA	raw	SRS591994
AndradesValtuena2017	2017	10.1016/j.cub.2017.10.025	Rasshevatskiy	45.569	41.03	Russia	RK1001	Homo sapiens	4200	10.1016/j.cub.2017.10.025	bacteria	Yersinia pestis	tooth	chromosome	NA	ENA	raw	ERS1892069
AndradesValtuena2017	2017	10.1016/j.cub.2017.10.025	Beli Manastir-Popova zemlja	45.77	18.61	Croatia	GEN72	Homo sapiens	4200	10.1016/j.cub.2017.10.025	bacteria	Yersinia pestis	tooth	chromosome	NA	ENA	raw	ERS1892068
AndradesValtuena2017	2017	10.1016/j.cub.2017.10.025	Gyvakarai	55.913	24.89	Lithuania	Gyvakarai1	Homo sapiens	4000	10.1016/j.cub.2017.10.025	bacteria	Yersinia pestis	tooth	chromosome	NA	ENA	raw	ERS1892064
AndradesValtuena2017	2017	10.1016/j.cub.2017.10.025	Kunila	58.616	23.796	Estonia	KunilaII	Homo sapiens	4000	10.1016/j.cub.2017.10.025	bacteria	Yersinia pestis	tooth	chromosome	NA	ENA	raw	ERS1892065
AndradesValtuena2017	2017	10.1016/j.cub.2017.10.025	Haunstetten Unterer Talweg 85	48.318	10.891	Germany	1343UnTal85	Homo sapiens	3800	10.1371/journal.pone.0139705	bacteria	Yersinia pestis	tooth	chromosome	NA	ENA	raw	ERS1892067
AndradesValtuena2017	2017	10.1016/j.cub.2017.10.025	Haunstetten Postillionstrasse 6	48.308	10.893	Germany	6Post	Homo sapiens	3600	10.1371/journal.pone.0139705	bacteria	Yersinia pestis	tooth	chromosome	NA	ENA	raw	ERS1892066
Spyrou2018	2018	10.1038/s41467-018-04550-9	Mikhailovsky II burial site	53.2	50.2	Russia	RT5	Homo sapiens	3500	10.1038/s41467-018-04550-9	bacteria	Yersinia pestis	tooth	chromosome	NA	ENA	raw	ERS2106903
Spyrou2018	2018	10.1038/s41467-018-04550-9	Mikhailovsky II burial site	53.2	50.2	Russia	RT6	Homo sapiens	3500	10.1038/s41467-018-04550-9	bacteria	Yersinia pestis	tooth	chromosome	NA	ENA	raw	ERS2106904
Rascovan2019	2019	10.1016/j.cell.2018.11.005	Gökhem 94:1, Frälsegården	58.173	13.407	Sweden	Gok2	Homo sapiens	4400	10.1016/j.cell.2018.11.005	bacteria	Yersinia pestis	tooth	chromosome	NA	ENA	raw	ERS434180
Rasmussen2015	2015	10.1016/j.cell.2015.10.009	Sope	59.408	27.026	Estonia	RISE00 	Homo sapiens	4000	10.1038/nature14507	bacteria	Yersinia pestis	tooth	chromosome	NA	ENA	raw	ERS848971
Rasmussen2015	2015	10.1016/j.cell.2015.10.009	Chociwel	50.796	17.094	Poland	RISE139 	Homo sapiens	3600	10.1038/nature14507	bacteria	Yersinia pestis	tooth	chromosome	NA	ENA	raw	ERS848972
Rasmussen2015	2015	10.1016/j.cell.2015.10.009	Bulanovo	52.453	55.16	Russia	RISE386 	Homo sapiens	3800	10.1038/nature14507	bacteria	Yersinia pestis	tooth	chromosome	NA	ENA	raw	ERS848973
Rasmussen2015	2015	10.1016/j.cell.2015.10.009	Kapan	39.2	46.4	Armenia	RISE397 	Homo sapiens	2800	10.1038/nature14507	bacteria	Yersinia pestis	tooth	chromosome	NA	ENA	raw	ERS848974
Rasmussen2015	2015	10.1016/j.cell.2015.10.009	Kytmanovo	53.456	85.447	Russia	RISE505 	Homo sapiens	3400	10.1038/nature14507	bacteria	Yersinia pestis	tooth	chromosome	NA	ENA	raw	ERS848975
Rasmussen2015	2015	10.1016/j.cell.2015.10.009	Bateni	54.584	90.775	Russia	RISE509 	Homo sapiens	4200	10.1038/nature14507	bacteria	Yersinia pestis	tooth	chromosome	NA	ENA	raw	ERS848976
Rasmussen2015	2015	10.1016/j.cell.2015.10.009	Bateni	54.584	90.775	Russia	RISE511 	Homo sapiens	2900	10.1038/nature14507	bacteria	Yersinia pestis	tooth	chromosome	NA	ENA	raw	ERS848977
Yu2020	2020	10.1016/j.cell.2020.04.037	Glazkovskoe Predmestie Site	52.279	104.251	Russia	GLZ001	Homo sapiens	4300	10.1016/j.cell.2020.04.037	bacteria	Yersinia pestis	tooth	chromosome	NA	ENA	raw	ERS4540520
Yu2020	2020	10.1016/j.cell.2020.04.037	Glazkovskoe Predmestie Site	52.279	104.251	Russia	GLZ002	Homo sapiens	4400	10.1016/j.cell.2020.04.037	bacteria	Yersinia pestis	tooth	chromosome	NA	ENA	raw	ERS4540521
Devault2017	2017	10.7554/eLife.20983	Troy	39.953	26.236	Turkey	Nod1	Homo sapiens	800	10.7554/eLife.20983	bacteria	Gardnerella vaginalis	calcified nodule	chromosome	NA	SRA	raw	SRS1779841,SRS1779840
Devault2017	2017	10.7554/eLife.20983	Troy	39.953	26.236	Turkey	Nod1	Homo sapiens	800	10.7554/eLife.20983	bacteria	Staphylococcus saprophyticus	calcified nodule	chromosome	NA	SRA	raw	SRS1779841,SRS1779840
Devault2017	2017	10.7554/eLife.20983	Troy	39.953	26.236	Turkey	Nod2	Homo sapiens	800	10.7554/eLife.20983	bacteria	Gardnerella vaginalis	calcified nodule	chromosome	NA	SRA	raw	SRS1779846,SRS1779844
Devault2017	2017	10.7554/eLife.20983	Troy	39.953	26.236	Turkey	Nod2	Homo sapiens	800	10.7554/eLife.20983	bacteria	Staphylococcus saprophyticus	calcified nodule	chromosome	NA	SRA	raw	SRS1779846,SRS1779844
Muhlemann2018	2018	10.1038/s41586-018-0097-z	Bulanovo	52.453	55.16	Russia	RISE387	Homo sapiens	3800	10.1038/s41586-018-0097-z	virus	Hepatitis B virus	tooth	chromosome	NA	ENA	raw	ERS2295393
Muhlemann2018	2018	10.1038/s41586-018-0097-z	Sandorfalva-Eperjes	46.344	20.162	Hungary	DA195	Homo sapiens	2500	10.1038/s41586-018-0097-z	virus	Hepatitis B virus	unknown	chromosome	NA	ENA	raw	ERS2295388
Muhlemann2018	2018	10.1038/s41586-018-0097-z	Osterhofen-Altenmarkt	48.691	13.061	Germany	RISE563	Homo sapiens	4000	10.1038/s41586-018-0097-z	virus	Hepatitis B virus	tooth	chromosome	NA	ENA	raw	ERS2295394
Muhlemann2018	2018	10.1038/s41586-018-0097-z	Szàzhalombatta-Földvàr	47.372	18.962	Hungary	RISE254	Homo sapiens	3600	10.1038/s41586-018-0097-z	virus	Hepatitis B virus	bone	chromosome	NA	ENA	raw	ERS2295391
Muhlemann2018	2018	10.1038/s41586-018-0097-z	Karasyur	46.997	66.285	Kazakhstan	DA29	Homo sapiens	800	10.1038/s41586-018-0097-z	virus	Hepatitis B virus	unknown	chromosome	NA	ENA	raw	ERS2295384
Muhlemann2018	2018	10.1038/s41586-018-0097-z	Halvay 3	52.836	62.893	Kazakhstan	DA27	Homo sapiens	1600	10.1038/s41586-018-0097-z	virus	Hepatitis B virus	unknown	chromosome	NA	ENA	raw	ERS2295383
Muhlemann2018	2018	10.1038/s41586-018-0097-z	Poprad	49.077	20.317	Slovakia	DA119	Homo sapiens	1500	10.1038/s41586-018-0097-z	virus	Hepatitis B virus	unknown	chromosome	NA	ENA	raw	ERS2295387
Muhlemann2018	2018	10.1038/s41586-018-0097-z	Omnogobi	42.525	105.18	Mongolia	DA45	Homo sapiens	2000	10.1038/s41586-018-0097-z	virus	Hepatitis B virus	bone	chromosome	NA	ENA	raw	ERS2295385
Muhlemann2018	2018	10.1038/s41586-018-0097-z	Szczepankowice	50.948	16.943	Poland	RISE154	Homo sapiens	3500	10.1038/s41586-018-0097-z	virus	Hepatitis B virus	tooth	chromosome	NA	ENA	raw	ERS2295390
Muhlemann2018	2018	10.1038/s41586-018-0097-z	Keden	41.428	75.329	Kyrgyzstan	DA51	Homo sapiens	2200	10.1038/s41586-018-0097-z	virus	Hepatitis B virus	unknown	chromosome	NA	ENA	raw	ERS2295386
Muhlemann2018	2018	10.1038/s41586-018-0097-z	Bulanovo	52.453	55.16	Russia	RISE386	Homo sapiens	3800	10.1038/s41586-018-0097-z	virus	Hepatitis B virus	tooth	chromosome	NA	ENA	raw	ERS2295392
Muhlemann2018	2018	10.1038/s41586-018-0097-z	Butakty	43.202	76.981	Kazakhstan	DA222	Homo sapiens	1100	10.1038/s41586-018-0097-z	virus	Hepatitis B virus	unknown	chromosome	NA	ENA	raw	ERS2295389
Dux2020	2020	10.1126/science.aba9411	Berlin	52.51	13.4	Germany	BMM 655/1912	Homo sapiens	100	10.1126/science.aba9411	virus	Measles morbillivirus	lung tissue	chromosome	NA	ENA	raw	ERS4249335
Dux2020	2020	10.1126/science.aba9411	Prague	50.06	14.46	Czech Republic	MVi/Prague.CZE/60/1	Homo sapiens	100	10.1126/science.aba9411	virus	Measles morbillivirus	isolate	chromosome	NA	ENA	raw	ERS4249362
Dux2020	2020	10.1126/science.aba9411	Prague	50.06	14.46	Czech Republic	Mvi/Prague.CZE/60/2	Homo sapiens	100	10.1126/science.aba9411	virus	Measles morbillivirus	isolate	chromosome	NA	ENA	raw	ERS4249363
Maixner2016	2016	10.1126/science.aad2545	Hauslabjoch	46.773	10.837	Italy	Iceman Stomach/Intestine (1054/1051/1063/1036)	Homo sapiens	5300	10.1126/science.aad2545	virus	Helicobacter pylori	digestive tract contents	chromosome	2010	ENA	raw	ERS942275,ERS942266,ERS942283,ERS942284,ERS942285,ERS942286,ERS942287,ERS942288,ERS942289,ERS942290,ERS942291,ERS942292,ERS942293,ERS942294,ERS942267,ERS942277,ERS942270,ERS942274,ERS942269,ERS942268,ERS942271,ERS942265,ERS942273,ERS942272,ERS942281,ERS942282 
Guellil2018	2018	10.1073/pnas.1807266115	St Nicolay’s ALT St Clement's Church, Oslo	59.904	10.765	Norway	OSL9a	Homo sapiens	400	10.1073/pnas.1807266115	bacteria	Borrelia recurrentis	tooth	chromosome	NA	ENA	raw	ERS2591211
Guellil2018	2018	10.1073/pnas.1807266115	St Nicolay’s ALT St Clement's Church, Oslo	59.904	10.765	Norway	OSL9b	Homo sapiens	400	10.1073/pnas.1807266116	bacteria	Borrelia recurrentis	tooth	chromosome	NA	ENA	raw	ERS2591210
Duggan2016	2016	10.1016/j.cub.2016.10.061	Dominican Church of the Holy Spirit of Vilnius	54.681	25.284	Lithuania	VD21	Homo sapiens	300	10.1016/j.cub.2016.10.061	virus	Variola virus	skin	chromosome	2011	SRA	raw	SRS1749354
deBarrosDamgaard2018	2018	10.1038/s41586-018-0094-2	Uch-Kurbu	42.159	77.406	Kyrgyzstan	DA101	Homo sapiens	1800	10.1038/s41586-018-0094-2	bacteria	Yersinia pestis	tooth	chromosome	NA	ENA	raw	ERS2367268
deBarrosDamgaard2018	2018	10.1038/s41586-018-0094-2	Unknown	42.861	44.185	Russia	DA147	Homo sapiens	1300	10.1038/s41586-018-0094-2	bacteria	Yersinia pestis	tooth	chromosome	NA	ENA	raw	ERS2367269
Key2020	2020	10.1038/s41559-020-1106-9	Murzikhinsky II	55.304	50.086	Russia	MUR009	Homo sapiens	5700	10.1038/s41559-020-1106-9	bacteria	Salmonella enterica	tooth	chromosome	NA	ENA	raw	ERS3967963
Key2020	2020	10.1038/s41559-020-1106-9	Murzikhinsky II	55.304	50.086	Russia	MUR019	Homo sapiens	5600	10.1038/s41559-020-1106-9	bacteria	Salmonella enterica	tooth	chromosome	NA	ENA	raw	ERS3967964
Key2020	2020	10.1038/s41559-020-1106-9	Ipatovo 3	45.685	42.921	Russia	IV3002	Homo sapiens	4600	10.1038/s41559-020-1106-9	bacteria	Salmonella enterica	tooth	chromosome	NA	ENA	raw	ERS3967967
Key2020	2020	10.1038/s41559-020-1106-9	Ikiztepe	41.612	35.87	Turkey	IKI003	Homo sapiens	4500	10.1038/s41559-020-1106-9	bacteria	Salmonella enterica	tooth	chromosome	NA	ENA	raw	ERS3967961
Key2020	2020	10.1038/s41559-020-1106-9	Oberbipp	47.262	7.659	Switzerland	OBP001	Homo sapiens	4600	10.1038/s41559-020-1106-9	bacteria	Salmonella enterica	tooth	chromosome	NA	ENA	raw	ERS3967965
Key2020	2020	10.1038/s41559-020-1106-9	Su Asedazzu	39.512	9.145	Italy	SUA004	Homo sapiens	3800	10.1038/s41559-020-1106-9	bacteria	Salmonella enterica	tooth	chromosome	NA	ENA	raw	ERS3967966
Key2020	2020	10.1038/s41559-020-1106-9	Marinskaya 3	43.905	43.521	Russia	MK3001	Homo sapiens	2800	10.1038/s41559-020-1106-9	bacteria	Salmonella enterica	tooth	chromosome	NA	ENA	raw	ERS3967962
Key2020	2020	10.1038/s41559-020-1106-9	Chiusi	43.016	11.95	Italy	ETR001	Homo sapiens	1800	10.1038/s41559-020-1106-9	bacteria	Salmonella enterica	tooth	chromosome	NA	ENA	raw	ERS3967960
Barquera2020	2020	10.1016/j.cub.2020.04.002	Hospital Real de San José de los Naturales	19.43	-99.14	Mexico	SJN003	Homo sapiens	500	10.1016/j.cub.2020.04.002	bacteria	Treponema pallidum	tooth	chromosome	NA	ENA	raw	ERS4529000,ERS4529001
Barquera2020	2020	10.1016/j.cub.2020.04.002	Hospital Real de San José de los Naturales	19.43	-99.14	Mexico	SJN001	Homo sapiens	500	10.1016/j.cub.2020.04.002	virus	Hepatitis B virus	tooth	chromosome	NA	ENA	raw	ERS4528997,ERS4528998
KrauseKyora2018	2018	10.7554/eLife.36666	Karsdorf	51.27	11.65	Germany	Karsdorf	Homo sapiens	7000	10.7554/eLife.36666	virus	Hepatitis B virus	tooth	chromosome	NA	ENA	raw	ERS2200179
KrauseKyora2018	2018	10.7554/eLife.36666	Sorsum	52.27	9.61	Germany	Sorsum	Homo sapiens	5100	10.7554/eLife.36666	virus	Hepatitis B virus	tooth	chromosome	NA	ENA	raw	ERS2200180
KrauseKyora2018	2018	10.7554/eLife.36666	Petersberg	47.71	12.12	Germany	Petersberg	Homo sapiens	900	10.7554/eLife.36666	virus	Hepatitis B virus	tooth	chromosome	NA	ENA	raw	ERS2200178
Giffin2020	2020	10.1038/s41598-020-66012-x	Aguonu g. 10	54.675	25.277	Lithuania	AGU007	Homo sapiens	400	10.1038/s41598-020-66012-x	bacteria	Yersinia pestis	tooth	chromosome	NA	ENA	raw	ERS4398261
Giffin2020	2020	10.1038/s41598-020-66012-x	Aguonu g. 10	54.675	25.277	Lithuania	AGU010	Homo sapiens	400	10.1038/s41598-020-66012-x	bacteria	Yersinia pestis	tooth	chromosome	NA	ENA	raw	ERS4410876
Giffin2020	2020	10.1038/s41598-020-66012-x	Aguonu g. 10	54.675	25.277	Lithuania	AGU020	Homo sapiens	400	10.1038/s41598-020-66012-x	bacteria	Yersinia pestis	tooth	chromosome	NA	ENA	raw	ERS4398262
Giffin2020	2020	10.1038/s41598-020-66012-x	Aguonu g. 10	54.675	25.277	Lithuania	AGU025	Homo sapiens	400	10.1038/s41598-020-66012-x	bacteria	Yersinia pestis	tooth	chromosome	NA	ENA	raw	ERS4398263
Giffin2020	2020	10.1038/s41598-020-66012-x	Aguonu g. 10	54.675	25.277	Lithuania	AGU007	Homo sapiens	400	10.1038/s41598-020-66012-x	bacteria	Treponema pallidum	tooth	chromosome	NA	ENA	raw	ERS4398260
Feldman2016	2016	10.1093/molbev/msw170	Altenerding	48.287	11.903	Germany	AE1175	Homo sapiens	1500	10.1093/molbev/msw170	bacteria	Yersinia pestis	tooth	chromosome	NA	ENA	raw	ERS1266114
BarGal2012	2012	10.1002/hep.25852	Yangju	37.8	127	South Korea	Yangju child mummy	Homo sapiens	300	10.1002/hep.25852	virus	Hepatitis B virus	liver	chromosome	NA	GenBank	assembly	JN315779
Keller2019	2019	10.1073/pnas.1820447116	Dittenheim	49.055	10.792	Germany	DIT003.B	Homo sapiens	1500	10.1073/pnas.1820447116	bacteria	Yersinia pestis	tooth	chromosome	NA	ENA	raw	ERS3465379
Keller2019	2019	10.1073/pnas.1820447116	Dittenheim	49.055	10.792	Germany	DIT004 merged	Homo sapiens	1500	10.1073/pnas.1820447116	bacteria	Yersinia pestis	tooth	chromosome	NA	ENA	raw	ERS3465380,ERS3465381
Keller2019	2019	10.1073/pnas.1820447116	Edix Hill	52.136	-0.011	United Kingdom	EDI001.A	Homo sapiens	1500	10.1073/pnas.1820447116	bacteria	Yersinia pestis	tooth	chromosome	NA	ENA	raw	ERS3465382
Keller2019	2019	10.1073/pnas.1820447116	Edix Hill	52.136	-0.011	United Kingdom	EDI003.A	Homo sapiens	1500	10.1073/pnas.1820447116	bacteria	Yersinia pestis	tooth	chromosome	NA	ENA	raw	ERS3465383
Keller2019	2019	10.1073/pnas.1820447116	Edix Hill	52.136	-0.011	United Kingdom	EDI004.A	Homo sapiens	1500	10.1073/pnas.1820447116	bacteria	Yersinia pestis	tooth	chromosome	NA	ENA	raw	ERS3465384
Keller2019	2019	10.1073/pnas.1820447116	Edix Hill	52.136	-0.011	United Kingdom	EDI005.A	Homo sapiens	1500	10.1073/pnas.1820447116	bacteria	Yersinia pestis	tooth	chromosome	NA	ENA	raw	ERS3465385
Keller2019	2019	10.1073/pnas.1820447116	Saint-Doulchard Le Pressoir 	47.105	2.357	France	LSD001.A	Homo sapiens	1300	10.1073/pnas.1820447116	bacteria	Yersinia pestis	tooth	chromosome	NA	ENA	raw	ERS3465386
Keller2019	2019	10.1073/pnas.1820447116	Saint-Doulchard Le Pressoir 	47.105	2.357	France	LSD002.A	Homo sapiens	1300	10.1073/pnas.1820447116	bacteria	Yersinia pestis	tooth	chromosome	NA	ENA	raw	ERS3465387
Keller2019	2019	10.1073/pnas.1820447116	Saint-Doulchard Le Pressoir 	47.105	2.357	France	LSD007.A	Homo sapiens	1300	10.1073/pnas.1820447116	bacteria	Yersinia pestis	tooth	chromosome	NA	ENA	raw	ERS3465388
Keller2019	2019	10.1073/pnas.1820447116	Saint-Doulchard Le Pressoir 	47.105	2.357	France	LSD013.A	Homo sapiens	1300	10.1073/pnas.1820447116	bacteria	Yersinia pestis	tooth	chromosome	NA	ENA	raw	ERS3465389
Keller2019	2019	10.1073/pnas.1820447116	Saint-Doulchard Le Pressoir 	47.105	2.357	France	LSD019.A	Homo sapiens	1300	10.1073/pnas.1820447116	bacteria	Yersinia pestis	tooth	chromosome	NA	ENA	raw	ERS3465390
Keller2019	2019	10.1073/pnas.1820447116	Saint-Doulchard Le Pressoir 	47.105	2.357	France	LSD020.A	Homo sapiens	1300	10.1073/pnas.1820447116	bacteria	Yersinia pestis	tooth	chromosome	NA	ENA	raw	ERS3465391
Keller2019	2019	10.1073/pnas.1820447116	Saint-Doulchard Le Pressoir 	47.105	2.357	France	LSD021.A	Homo sapiens	1300	10.1073/pnas.1820447116	bacteria	Yersinia pestis	tooth	chromosome	NA	ENA	raw	ERS3465392
Keller2019	2019	10.1073/pnas.1820447116	Saint-Doulchard Le Pressoir 	47.105	2.357	France	LSD022.A	Homo sapiens	1300	10.1073/pnas.1820447116	bacteria	Yersinia pestis	tooth	chromosome	NA	ENA	raw	ERS3465393
Keller2019	2019	10.1073/pnas.1820447116	Saint-Doulchard Le Pressoir 	47.105	2.357	France	LSD023.A	Homo sapiens	1300	10.1073/pnas.1820447116	bacteria	Yersinia pestis	tooth	chromosome	NA	ENA	raw	ERS3465394
Keller2019	2019	10.1073/pnas.1820447116	Saint-Doulchard Le Pressoir 	47.105	2.357	France	LSD024.A	Homo sapiens	1300	10.1073/pnas.1820447116	bacteria	Yersinia pestis	tooth	chromosome	NA	ENA	raw	ERS3465395
Keller2019	2019	10.1073/pnas.1820447116	Saint-Doulchard Le Pressoir 	47.105	2.357	France	LSD026.A	Homo sapiens	1300	10.1073/pnas.1820447116	bacteria	Yersinia pestis	tooth	chromosome	NA	ENA	raw	ERS3465396
Keller2019	2019	10.1073/pnas.1820447116	Lunel-Viel (Quartier centrale)	43.677	4.092	France	LVC001 merged	Homo sapiens	1500	10.1073/pnas.1820447116	bacteria	Yersinia pestis	tooth	chromosome	NA	ENA	raw	ERS3465397,ERS3465398
Keller2019	2019	10.1073/pnas.1820447116	Lunel-Viel (Quartier centrale)	43.677	4.092	France	LVC005 merged	Homo sapiens	1500	10.1073/pnas.1820447116	bacteria	Yersinia pestis	tooth	chromosome	NA	ENA	raw	ERS3465399,ERS3465400,ERS3465401
Keller2019	2019	10.1073/pnas.1820447116	Lunel-Viel (Quartier centrale)	43.677	4.092	France	LVC006.A	Homo sapiens	1500	10.1073/pnas.1820447116	bacteria	Yersinia pestis	tooth	chromosome	NA	ENA	raw	ERS3465402
Keller2019	2019	10.1073/pnas.1820447116	Petting	47.912	12.816	Germany	PET004.A	Homo sapiens	1500	10.1073/pnas.1820447116	bacteria	Yersinia pestis	tooth	chromosome	NA	ENA	raw	ERS3465404
Keller2019	2019	10.1073/pnas.1820447116	Petting	47.912	12.816	Germany	PET005.A	Homo sapiens	1500	10.1073/pnas.1820447116	bacteria	Yersinia pestis	tooth	chromosome	NA	ENA	raw	ERS3465405
Keller2019	2019	10.1073/pnas.1820447116	Petting	47.912	12.816	Germany	PET006.A	Homo sapiens	1500	10.1073/pnas.1820447116	bacteria	Yersinia pestis	tooth	chromosome	NA	ENA	raw	ERS3465406
Keller2019	2019	10.1073/pnas.1820447116	Unterthürheim	48.599	10.706	Germany	UNT002.A	Homo sapiens	1600	10.1073/pnas.1820447116	bacteria	Yersinia pestis	tooth	chromosome	NA	ENA	raw	ERS3465407
Keller2019	2019	10.1073/pnas.1820447116	Unterthürheim	48.599	10.706	Germany	UNT003.A	Homo sapiens	1500	10.1073/pnas.1820447116	bacteria	Yersinia pestis	tooth	chromosome	NA	ENA	raw	ERS3465408
Keller2019	2019	10.1073/pnas.1820447116	Unterthürheim	48.599	10.706	Germany	UNT004.A	Homo sapiens	1600	10.1073/pnas.1820447116	bacteria	Yersinia pestis	tooth	chromosome	NA	ENA	raw	ERS3465409
Keller2019	2019	10.1073/pnas.1820447116	Unterthürheim	48.599	10.706	Germany	UNT005.A	Homo sapiens	1500	10.1073/pnas.1820447116	bacteria	Yersinia pestis	tooth	chromosome	NA	ENA	raw	ERS3465410
Keller2019	2019	10.1073/pnas.1820447116	Unterthürheim	48.599	10.706	Germany	UNT006.A	Homo sapiens	1500	10.1073/pnas.1820447116	bacteria	Yersinia pestis	tooth	chromosome	NA	ENA	raw	ERS3465411
Keller2019	2019	10.1073/pnas.1820447116	Valencia	39.476	-0.374	Spain	VAL001.B	Homo sapiens	1500	10.1073/pnas.1820447116	bacteria	Yersinia pestis	tooth	chromosome	NA	ENA	raw	ERS3465403
Keller2019	2019	10.1073/pnas.1820447116	Waging	47.934	12.733	Germany	WAG001.A	Homo sapiens	1500	10.1073/pnas.1820447116	bacteria	Yersinia pestis	tooth	chromosome	NA	ENA	raw	ERS3465412
Muhlemann2018b	2018	10.1073/pnas.1804921115	Tian Shan	41.501	75.794	Kyrgyzstan	DA66	Homo sapiens	1500	10.1073/pnas.1804921115	virus	Parvovirus B19	unknown	chromosome	NA	ENA	reference_aligned,consensus	ERS2484289
Muhlemann2018b	2018	10.1073/pnas.1804921115	Lake Baikal (Shamanka II)	51.698	103.703	Russia	DA337	Homo sapiens	4000	10.1073/pnas.1804921115	virus	Parvovirus B19	unknown	chromosome	NA	ENA	reference_aligned,consensus	ERS2484292
Muhlemann2018b	2018	10.1073/pnas.1804921115	Gotland	57.63	18.28	Sweden	VK477	Homo sapiens	1000	10.1073/pnas.1804921115	virus	Parvovirus B19	tooth	chromosome	NA	ENA	reference_aligned,consensus	ERS2484298
Muhlemann2018b	2018	10.1073/pnas.1804921115	Brandýsek	50.18	14.15	Czech Republic	RISE569	Homo sapiens	1300	10.1073/pnas.1804921115	virus	Parvovirus B19	tooth	chromosome	NA	ENA	reference_aligned,consensus	ERS2484294
Muhlemann2018b	2018	10.1073/pnas.1804921115	Bazaiha, Krasnoyarsk	55.951	92.784	Russia	NEO105	Homo sapiens	500	10.1073/pnas.1804921115	virus	Parvovirus B19	tooth	chromosome	NA	ENA	reference_aligned,consensus	ERS2484293
Muhlemann2018b	2018	10.1073/pnas.1804921115	Lake Baikal (Shamanka II)	51.698	103.703	Russia	DA251	Homo sapiens	6900	10.1073/pnas.1804921115	virus	Parvovirus B19	tooth	chromosome	NA	ENA	reference_aligned,consensus	ERS2484290
Muhlemann2018b	2018	10.1073/pnas.1804921115	Eastern Settlement	60.99	-45.42	Greenland	VK6	Homo sapiens	1000	10.1073/pnas.1804921115	virus	Parvovirus B19	tooth	chromosome	NA	ENA	reference_aligned,consensus	ERS2484295
Muhlemann2018b	2018	10.1073/pnas.1804921115	Bodzia	52.703	18.887	Poland	VK154	Homo sapiens	1000	10.1073/pnas.1804921115	virus	Parvovirus B19	tooth	chromosome	NA	ENA	reference_aligned,consensus	ERS2484297
Muhlemann2018b	2018	10.1073/pnas.1804921115	Oxford	51.756	-1.257	United Kingdom	VK143	Homo sapiens	1100	10.1073/pnas.1804921115	virus	Parvovirus B19	tooth	chromosome	NA	ENA	reference_aligned,consensus	ERS2484296
Muhlemann2018b	2018	10.1073/pnas.1804921115	Lake Baikal (Shamanka II)	51.698	103.703	Russia	DA336	Homo sapiens	4100	10.1073/pnas.1804921115	virus	Parvovirus B19	unknown	chromosome	NA	ENA	reference_aligned,consensus	ERS2484291
Wagner2014	2014	10.1016/S1473-3099(13)70323-2	Aschheim-Bajuwarenring	48.172	11.715	Germany	A120	Homo sapiens	1400	10.1016/S1473-3099(13)70323-2	bacteria	Yersinia pestis	tooth	chromosome	NA	SRA	raw	SRS514388,SRS514389,SRS514393,SRS514395,SRS514397,SRS514398,SRS514399,SRS514400,SRS514401,SRS514402,SRS514403,SRS514404,SRS514423,SRS514424,SRS514425,SRS514426,SRS514427,SRS514429,SRS514430,SRS514431,SRS514435,SRS514436,SRS514437,SRS514438,SRS514439,SRS514440,SRS514441,SRS514442,SRS514507,SRS514506,SRS514505,SRS514444
Wagner2014	2014	10.1016/S1473-3099(13)70323-2	Aschheim-Bajuwarenring	48.172	11.715	Germany	A76	Homo sapiens	1400	10.1016/S1473-3099(13)70323-2	bacteria	Yersinia pestis	tooth	chromosome	NA	SRA	raw	SRS514391,SRS514392,SRS514432,SRS514443,SRS514508
Bos2011	2011	10.1038/nature10549	East Smithfield Cemetery	51.508	-0.069	United Kingdom	ES_11972	Homo sapiens	600	10.1038/nature10549	bacteria	Yersinia pestis	tooth	chromosome	NA	SRA	raw	SRS259946
Bos2011	2011	10.1038/nature10549	East Smithfield Cemetery	51.508	-0.069	United Kingdom	ES_6330	Homo sapiens	600	10.1038/nature10549	bacteria	Yersinia pestis	tooth	chromosome	NA	SRA	raw	SRS259944
Bos2011	2011	10.1038/nature10549	East Smithfield Cemetery	51.508	-0.069	United Kingdom	ES_8124	Homo sapiens	600	10.1038/nature10549	bacteria	Yersinia pestis	tooth	chromosome	NA	SRA	raw	SRS259947
Bos2011	2011	10.1038/nature10549	East Smithfield Cemetery	51.508	-0.069	United Kingdom	ES_8291	Homo sapiens	600	10.1038/nature10549	bacteria	Yersinia pestis	tooth	chromosome	NA	SRA	raw	SRS259945
Bos2016	2016	10.7554/eLife.12994.001	Observance	43.301	5.367	France	OBS107	Homo sapiens	200	10.7554/eLife.12994.001	bacteria	Yersinia pestis	tooth	chromosome	NA	ENA	raw	ERS1020860
Bos2016	2016	10.7554/eLife.12994.001	Observance	43.301	5.367	France	OBS110	Homo sapiens	200	10.7554/eLife.12994.001	bacteria	Yersinia pestis	tooth	chromosome	NA	ENA	raw	ERS1020861
Bos2016	2016	10.7554/eLife.12994.001	Observance	43.301	5.367	France	OBS116	Homo sapiens	200	10.7554/eLife.12994.001	bacteria	Yersinia pestis	tooth	chromosome	NA	ENA	raw	ERS1020862
Bos2016	2016	10.7554/eLife.12994.001	Observance	43.301	5.367	France	OBS124	Homo sapiens	200	10.7554/eLife.12994.001	bacteria	Yersinia pestis	tooth	chromosome	NA	ENA	raw	ERS1020863
Bos2016	2016	10.7554/eLife.12994.001	Observance	43.301	5.367	France	OBS137	Homo sapiens	200	10.7554/eLife.12994.001	bacteria	Yersinia pestis	tooth	chromosome	NA	ENA	raw	ERS1020864
PattersonRoss2018	2018	10.1371/journal.ppat.1006750	Sacristy of the Basilica of St. Domenico Maggiore	40.848	14.254	Italy	NASD24	Homo sapiens	400	10.1371/journal.ppat.1006750	virus	Hepatitis B virus	tissue	chromosome	NA	GenBank	consensus	MG585269
Vagene2018	2018	10.1038/s41559-017-0446-6	Teposcolula-Yucundaa	17.499	-97.467	Mexico	Tepos_10	Homo sapiens	400	10.1038/s41559-017-0446-6	bacteria	Salmonella enterica	tooth	chromosome	NA	ENA	raw	ERS2020211
Vagene2018	2018	10.1038/s41559-017-0446-6	Teposcolula-Yucundaa	17.499	-97.467	Mexico	Tepos_11	Homo sapiens	400	10.1038/s41559-017-0446-6	bacteria	Salmonella enterica	tooth	chromosome	NA	ENA	raw	ERS2020212
Vagene2018	2018	10.1038/s41559-017-0446-6	Teposcolula-Yucundaa	17.499	-97.467	Mexico	Tepos_14	Homo sapiens	400	10.1038/s41559-017-0446-6	bacteria	Salmonella enterica	tooth	chromosome	NA	ENA	raw	ERS2020215
Vagene2018	2018	10.1038/s41559-017-0446-6	Teposcolula-Yucundaa	17.499	-97.467	Mexico	Tepos_20	Homo sapiens	400	10.1038/s41559-017-0446-6	bacteria	Salmonella enterica	tooth	chromosome	NA	ENA	raw	ERS2020221
Vagene2018	2018	10.1038/s41559-017-0446-6	Teposcolula-Yucundaa	17.499	-97.467	Mexico	Tepos_34	Homo sapiens	400	10.1038/s41559-017-0446-6	bacteria	Salmonella enterica	tooth	chromosome	NA	ENA	raw	ERS2020226
Vagene2018	2018	10.1038/s41559-017-0446-6	Teposcolula-Yucundaa	17.499	-97.467	Mexico	Tepos_35	Homo sapiens	400	10.1038/s41559-017-0446-6	bacteria	Salmonella enterica	tooth	chromosome	NA	ENA	raw	ERS2020227
Vagene2018	2018	10.1038/s41559-017-0446-6	Teposcolula-Yucundaa	17.499	-97.467	Mexico	Tepos_36	Homo sapiens	400	10.1038/s41559-017-0446-6	bacteria	Salmonella enterica	tooth	chromosome	NA	ENA	raw	ERS2020228
Vagene2018	2018	10.1038/s41559-017-0446-6	Teposcolula-Yucundaa	17.499	-97.467	Mexico	Tepos_37	Homo sapiens	400	10.1038/s41559-017-0446-6	bacteria	Salmonella enterica	tooth	chromosome	NA	ENA	raw	ERS2020229
Vagene2018	2018	10.1038/s41559-017-0446-6	Teposcolula-Yucundaa	17.499	-97.467	Mexico	Tepos_38	Homo sapiens	400	10.1038/s41559-017-0446-6	bacteria	Salmonella enterica	tooth	chromosome	NA	ENA	raw	ERS2020230
Vagene2018	2018	10.1038/s41559-017-0446-6	Teposcolula-Yucundaa	17.499	-97.467	Mexico	Tepos_41	Homo sapiens	400	10.1038/s41559-017-0446-6	bacteria	Salmonella enterica	tooth	chromosome	NA	ENA	raw	ERS2020231
deDios2020	2020	10.1016/j.meegid.2020.104209	Musées Royaux des Beaux-Arts de Belgique	50.842	4.358	Belgium	Jean-Paul Marat	Homo sapiens	200	10.1016/j.meegid.2020.104209	eukaryota	Malassezia restricta	blood	chromosome	NA	ENA	raw	ERS4278128,ERS4278129,ERS4278130
deDios2020	2020	10.1016/j.meegid.2020.104209	Musées Royaux des Beaux-Arts de Belgique	50.842	4.358	Belgium	Jean-Paul Marat	Homo sapiens	200	10.1016/j.meegid.2020.104209	eukaryota	Cutibacterium acnes	blood	chromosome	NA	ENA	raw	ERS4278128,ERS4278129,ERS4278130
Zhou2018	2018	10.1016/j.cub.2018.05.058	St. Olav's Cathedral	63.425	10.392	Norway	SK152	Homo sapiens	800	10.1016/j.cub.2018.05.058	bacteria	Salmonella enterica	tooth	chromosome	NA	UCPH ERDA	raw	E56xgi8CEl
Sabin2020	2020	10.1186/s13059-020-02112-1	Lund Cathedral	55.704	13.193	Sweden	Bishop Peder Winstrup	Homo sapiens	300	10.1186/s13059-020-02112-1	bacteria	Mycobacterium tuberculosis	calcified nodule	chromosome	NA	SRA	raw	SRS6462469
Kay2014	2014	10.1128/mBio.01337-14	Geridu, Sardinia	40.78	8.574	Italy	2568	Homo sapiens	600	10.1128/mBio.01337-14	bacteria	Brucella melitensis	calcified nodule	chromosome	NA	ENA	raw	ERS430636
Devault2014	2014	10.1056/NEJMoa1308663	Mütter Museum, College of Physicians of Philadelphia	39.953	-75.176	USA	3090.13	Homo sapiens	100	10.1056/NEJMoa1308663	bacteria	Vibrio cholerae	intestine	chromosome	NA	SRA	raw	SRS480102
Kay2015	2015	10.1038/ncomms7717	Dominican church of Vác	47.777	19.127	Hungary	body_121	Homo sapiens	200	10.1038/ncomms7717	bacteria	Mycobacterium tuberculosis	bone	chromosome	NA	ENA	raw	ERS563413, ERS563414, ERS563415
Kay2015	2015	10.1038/ncomms7717	Dominican church of Vác	47.777	19.127	Hungary	body_68	Homo sapiens	200	10.1038/ncomms7717	bacteria	Mycobacterium tuberculosis	lung tissue	chromosome	NA	ENA	raw	ERS563404, ERS563405, ERS563406
Kay2015	2015	10.1038/ncomms7717	Dominican church of Vác	47.777	19.127	Hungary	body_78	Homo sapiens	200	10.1038/ncomms7717	bacteria	Mycobacterium tuberculosis	bone	chromosome	NA	ENA	raw	ERS563407
Kay2015	2015	10.1038/ncomms7717	Dominican church of Vác	47.777	19.127	Hungary	body_28	Homo sapiens	200	10.1038/ncomms7717	bacteria	Mycobacterium tuberculosis	abdomen	chromosome	NA	ENA	raw	ERS563385, ERS563386, ERS563387
Kay2015	2015	10.1038/ncomms7717	Dominican church of Vác	47.777	19.127	Hungary	body_25	Homo sapiens	200	10.1038/ncomms7717	bacteria	Mycobacterium tuberculosis	abdomen	chromosome	NA	ENA	raw	ERS563382, ERS563383
Kay2015	2015	10.1038/ncomms7717	Dominican church of Vác	47.777	19.127	Hungary	body_80	Homo sapiens	100	10.1038/ncomms7717	bacteria	Mycobacterium tuberculosis	thoracic segment of trunk	chromosome	NA	ENA	raw	ERS563408
Kay2015	2015	10.1038/ncomms7717	Dominican church of Vác	47.777	19.127	Hungary	body_23	Homo sapiens	200	10.1038/ncomms7717	bacteria	Mycobacterium tuberculosis	abdomen	chromosome	NA	ENA	raw	ERS563378, ERS563379
Kay2015	2015	10.1038/ncomms7717	Dominican church of Vác	47.777	19.127	Hungary	body_92	Homo sapiens	200	10.1038/ncomms7717	bacteria	Mycobacterium tuberculosis	thoracic segment of trunk	chromosome	NA	ENA	raw	ERS563409
vanDorp2020	2020	10.1093/molbev/msz264	Sant Jaume d’Enveja	40.705	0.727	Spain	Ebro-1944	Homo sapiens	100	10.1093/molbev/msz264	eukaryota	Plasmodium vivax	blood	chromosome	NA	ENA	raw	ERS3037135,ERS3037137,ERS3037139,ERS3037136,ERS3037140,ERS3037138,ERS3037141
Kerudin2019	2019	10.1016/j.jas.2019.105035	Hospital of  St  James and  St  Mary Magdalene	50.842	-0.759	United Kingdom	C21	Homo sapiens	400	10.1016/j.jas.2019.105035	bacteria	Mycobacterium leprae	bone	chromosome	NA	ENA	raw	ERS3908875
Kerudin2019	2019	10.1016/j.jas.2019.105035	Hospital of  St  James and  St  Mary Magdalene	50.842	-0.759	United Kingdom	C48	Homo sapiens	400	10.1016/j.jas.2019.105035	bacteria	Mycobacterium leprae	bone	chromosome	NA	ENA	raw	ERS3908876
Kerudin2019	2019	10.1016/j.jas.2019.105035	Raunds Furnells cemetary	52.349	-0.534	United Kingdom	R5046	Homo sapiens	800	10.1016/j.jas.2019.105035	bacteria	Mycobacterium leprae	bone	chromosome	NA	ENA	raw	ERS3908877
Worobey2016	2016	10.1038/nature19827	San Francisco Cohort	37.77	-122.42	USA	SF73	Homo sapiens	100	10.1038/nature19827	virus	Human immunodeficiency virus 1	blood	chromosome	NA	Dryad	consensus	10.5061/dryad.7mv7v
Worobey2016	2016	10.1038/nature19827	San Francisco Cohort	37.77	-122.42	USA	SF74	Homo sapiens	100	10.1038/nature19827	virus	Human immunodeficiency virus 1	blood	chromosome	NA	Dryad	consensus	10.5061/dryad.7mv7v
Worobey2016	2016	10.1038/nature19827	San Francisco Cohort	37.77	-122.42	USA	SF20	Homo sapiens	100	10.1038/nature19827	virus	Human immunodeficiency virus 1	blood	chromosome	NA	Dryad	consensus	10.5061/dryad.7mv7v
Worobey2016	2016	10.1038/nature19827	New York Cohort	40.69	-73.98	USA	NYC7	Homo sapiens	100	10.1038/nature19827	virus	Human immunodeficiency virus 1	blood	chromosome	NA	Dryad	consensus	10.5061/dryad.7mv7v
Worobey2016	2016	10.1038/nature19827	New York Cohort	40.69	-73.98	USA	NYC16	Homo sapiens	100	10.1038/nature19827	virus	Human immunodeficiency virus 1	blood	chromosome	NA	Dryad	consensus	10.5061/dryad.7mv7v
Worobey2016	2016	10.1038/nature19827	New York Cohort	40.69	-73.98	USA	NYC12	Homo sapiens	100	10.1038/nature19827	virus	Human immunodeficiency virus 1	blood	chromosome	NA	Dryad	consensus	10.5061/dryad.7mv7v
Worobey2016	2016	10.1038/nature19827	New York Cohort	40.69	-73.98	USA	NYC4	Homo sapiens	100	10.1038/nature19827	virus	Human immunodeficiency virus 1	blood	chromosome	NA	Dryad	consensus	10.5061/dryad.7mv7v
Worobey2016	2016	10.1038/nature19827	New York Cohort	40.69	-73.98	USA	Patient0 (PZconservative040513)	Homo sapiens	100	10.1038/nature19827	virus	Human immunodeficiency virus 1	blood	chromosome	NA	Dryad	consensus	10.5061/dryad.7mv7v
deDios2019	2019	10.1099/mgen.0.000289	Sant Jaume d’Enveja	40.705	0.727	Spain	Ebro-1944	Homo sapiens	100	10.1099/mgen.0.000289	eukaryota	Plasmodium falciparum	blood	chromosome	NA	ENA	raw	ERS3369379,ERS3369380,ERS3369382,ERS3369383
Schuenemann2011	2011	10.1073/pnas.1105107108	East Smithfield Cemetery	51.508	-0.069	United Kingdom	ES 1-5	Homo sapiens	600	10.1073/pnas.1105107108	bacteria	Yersinia pestis	tooth	organelle	NA	GenBank	consensus	HE576987
Duggan2020	2020	10.1186/s13059-020-02079-z	Mütter Museum, College of Physicians of Philadelphia	39.953	-75.176	USA	VK01	Homo sapiens	100	10.1186/s13059-020-02079-z	virus	Vaccinia virus	bodily fluid material	chromosome	NA	SRA	raw,consensus	SRS5298897
Duggan2020	2020	10.1186/s13059-020-02079-z	Mütter Museum, College of Physicians of Philadelphia	39.953	-75.176	USA	VK02	Homo sapiens	100	10.1186/s13059-020-02079-z	virus	Vaccinia virus	bodily fluid material	chromosome	NA	SRA	raw	SRS5298896
Duggan2020	2020	10.1186/s13059-020-02079-z	Mütter Museum, College of Physicians of Philadelphia	39.953	-75.176	USA	VK05	Homo sapiens	100	10.1186/s13059-020-02079-z	virus	Vaccinia virus	bodily fluid material	chromosome	NA	SRA	raw	SRS5298895
Duggan2020	2020	10.1186/s13059-020-02079-z	Mütter Museum, College of Physicians of Philadelphia	39.953	-75.176	USA	VK08	Homo sapiens	100	10.1186/s13059-020-02079-z	virus	Vaccinia virus	bodily fluid material	chromosome	NA	SRA	raw	SRS5298894
Duggan2020	2020	10.1186/s13059-020-02079-z	Mütter Museum, College of Physicians of Philadelphia	39.953	-75.176	USA	VK12	Homo sapiens	100	10.1186/s13059-020-02079-z	virus	Vaccinia virus	medical instrument	chromosome	NA	SRA	raw	SRS5298893
Namouchi2018	2018	10.1073/pnas.1812865115	Abbadia San Salvatore 	42.880	11.676	Italy	BSS31	Homo sapiens	600	10.1073/pnas.1812865115	bacteria	Yersinia pestis	tooth	chromosome	NA	ENA	raw	ERS2865269
Namouchi2018	2018	10.1073/pnas.1812865115	Saint-Laurent-de-la-Cabrerisse	43.087	2.720	France	SLC1006	Homo sapiens	600	10.1073/pnas.1812865115	bacteria	Yersinia pestis	tooth	chromosome	NA	ENA	raw	ERS2865271
Namouchi2018	2018	10.1073/pnas.1812865115	St Nicolay and St Clement	59.904	10.765	Norway	OSL1	Homo sapiens	600	10.1073/pnas.1812865115	bacteria	Yersinia pestis	tooth	chromosome	NA	ENA	raw	ERS2865270
Namouchi2018	2018	10.1073/pnas.1812865115	Bergen op Zoom	51.494	4.287	Netherlands	Ber45	Homo sapiens	600	10.1073/pnas.1812865115	bacteria	Yersinia pestis	tooth	chromosome	NA	ENA	raw	ERS2865268
Namouchi2018	2018	10.1073/pnas.1812865115	Bergen op Zoom	51.494	4.287	Netherlands	Ber37	Homo sapiens	600	10.1073/pnas.1812865115	bacteria	Yersinia pestis	tooth	chromosome	NA	ENA	raw	ERS2865267
Martin2013	2013	10.1038/ncomms3172	Audernade	50.86	3.63	Belgium	Pi1845A	Solanum tuberosum	100	10.1038/ncomms3172	eukaryota	Phytophthora infestans	leaf	chromosome	NA	SRA	raw	ERS258003
Martin2013	2013	10.1038/ncomms3172	Unknown	51.52	-0.13	United Kingdom	Pi1845B	Solanum tuberosum	100	10.1038/ncomms3172	eukaryota	Phytophthora infestans	leaf	chromosome	NA	SRA	raw	ERS258004
Martin2013	2013	10.1038/ncomms3172	Skårop	55.09	10.69	Denmark	Pi1876	Solanum tuberosum	100	10.1038/ncomms3172	eukaryota	Phytophthora infestans	leaf	chromosome	NA	SRA	raw	ERS258005
Martin2013	2013	10.1038/ncomms3172	Stockholm	59.33	18.07	Sweden	Pi1882	Solanum tuberosum	100	10.1038/ncomms3172	eukaryota	Phytophthora infestans	leaf	chromosome	NA	SRA	raw	ERS258006
Martin2013	2013	10.1038/ncomms3172	Unknown	50.11	8.65	Germany	Pi1889	Solanum tuberosum	100	10.1038/ncomms3172	eukaryota	Phytophthora infestans	leaf	chromosome	NA	SRA	raw	ERS258007

